[
  {
    "id": 1,
    "name": "Ратуша",
    "description": "Головна архітектурна пам'ятка міста, збудована у 1695 році. Символ Івано-Франківська.",
    "address": "пл. Шептицького, 1",
    "category": "Визначні місця",
    "latitude": 48.9225,
    "longitude": 24.7111,
    "image_url": null,
    "is_popular": true,
    "is_new": false,
    "rating": 4.9
  },
  {
    "id": 2,
    "name": "Парк імені Тараса Шевченка",
    "description": "Центральний міський парк для прогулянок та відпочинку. Улюблене місце франківців.",
    "address": "вул. Шевченка",
    "category": "Парки",
    "latitude": 48.9108,
    "longitude": 24.6947,
    "image_url": null,
    "is_popular": true,
    "is_new": false,
    "rating": 4.7
  },
  {
    "id": 3,
    "name": "Стометрівка",
    "description": "Головна пішохідна вулиця міста — проспект Незалежності. Кафе, крамниці та атмосфера.",
    "address": "пр. Незалежності",
    "category": "Розваги",
    "latitude": 48.9201,
    "longitude": 24.7091,
    "image_url": null,
    "is_popular": true,
    "is_new": false,
    "rating": 4.8
  },
  {
    "id": 4,
    "name": "Міське озеро",
    "description": "Мальовниче озеро у парковій зоні. Ідеальне для вечірніх прогулянок та пікніків.",
    "address": "вул. Галицька",
    "category": "Парки",
    "latitude": 48.9155,
    "longitude": 24.6921,
    "image_url": null,
    "is_popular": false,
    "is_new": false,
    "rating": 4.5
  },
  {
    "id": 5,
    "name": "Картинг",
    "description": "Сучасний картинг-центр з трасою для дорослих і дітей. Адреналін гарантовано!",
    "address": "вул. Вовчинецька, 225а",
    "category": "Розваги",
    "latitude": 48.9410,
    "longitude": 24.7372,
    "image_url": null,
    "is_popular": false,
    "is_new": true,
    "rating": 4.3
  },
  {
    "id": 6,
    "name": "Вірменська церква",
    "description": "Унікальна пам'ятка архітектури XVII століття. Зараз арт-простір і галерея.",
    "address": "вул. Вірменська, 2",
    "category": "Визначні місця",
    "latitude": 48.9233,
    "longitude": 24.7128,
    "image_url": null,
    "is_popular": true,
    "is_new": false,
    "rating": 4.6
  },
  {
    "id": 7,
    "name": "Десятка",
    "description": "Популярна зона відпочинку в центрі міста. Фонтани, лавки, атмосфера.",
    "address": "вул. Шашкевича",
    "category": "Парки",
    "latitude": 48.9200,
    "longitude": 24.7119,
    "image_url": null,
    "is_popular": false,
    "is_new": false,
    "rating": 4.4
  },
  {
    "id": 8,
    "name": "Ivano Coffee",
    "description": "Затишна кав'ярня з авторськими напоями та домашньою випічкою в самому серці міста.",
    "address": "пл. Ринок, 14",
    "category": "Кафе",
    "latitude": 48.9221,
    "longitude": 24.7105,
    "image_url": null,
    "is_popular": false,
    "is_new": true,
    "rating": 4.8
  }
]